[{
    "name": "Trilia",
    "url": "wheretobuy-store.html",
    "address": "803 Pennsylvania Hill",
    "lat": "-7.2333",
    "lng": "106.5198"
}, {
    "name": "Chatterpoint",
    "url": "wheretobuy-store.html",
    "address": "46 Chive Avenue",
    "lat": "41.4375",
    "lng": "22.64333"
}, {
    "name": "Jaxnation",
    "url": "wheretobuy-store.html",
    "address": "25083 Iowa Terrace",
    "lat": "45.93583",
    "lng": "16.78333"
}, {
    "name": "Blogtags",
    "url": "wheretobuy-store.html",
    "address": "5 Almo Drive",
    "lat": "46.53417",
    "lng": "15.07917"
}, {
    "name": "Oyope",
    "url": "wheretobuy-store.html",
    "address": "9 Cambridge Pass",
    "lat": "47.34277",
    "lng": "130.31222"
}, {
    "name": "Gevee",
    "url": "wheretobuy-store.html",
    "address": "9321 Jackson Lane",
    "lat": "26.91528",
    "lng": "110.40778"
}, {
    "name": "Yakijo",
    "url": "wheretobuy-store.html",
    "address": "234 Buhler Parkway",
    "lat": "28.7",
    "lng": "115.81667"
}, {
    "name": "Voomm",
    "url": "wheretobuy-store.html",
    "address": "43 Shelley Plaza",
    "lat": "46.86135",
    "lng": "124.442"
}, {
    "name": "Browsetype",
    "url": "wheretobuy-store.html",
    "address": "9774 Jana Park",
    "lat": "15.14442",
    "lng": "120.94077"
}, {
    "name": "Jayo",
    "url": "wheretobuy-store.html",
    "address": "34681 Montana Road",
    "lat": "21.16678",
    "lng": "110.07214"
}, {
    "name": "Quatz",
    "url": "wheretobuy-store.html",
    "address": "478 Rutledge Crossing",
    "lat": "19.01987",
    "lng": "108.90884"
}, {
    "name": "Pixoboo",
    "url": "wheretobuy-store.html",
    "address": "478 Welch Center",
    "lat": "50.95044",
    "lng": "14.49617"
}, {
    "name": "Edgeblab",
    "url": "wheretobuy-store.html",
    "address": "51652 Arrowood Pass",
    "lat": "31.47448",
    "lng": "116.95206"
}, {
    "name": "Browsebug",
    "url": "wheretobuy-store.html",
    "address": "3588 Miller Point",
    "lat": "49.5667",
    "lng": "3.6167"
}, {
    "name": "Aimbo",
    "url": "wheretobuy-store.html",
    "address": "331 Randy Avenue",
    "lat": "-35.76952",
    "lng": "-58.49341"
}, {
    "name": "Meeveo",
    "url": "wheretobuy-store.html",
    "address": "2720 Gateway Center",
    "lat": "8.91667",
    "lng": "-79.68333"
}, {
    "name": "Centimia",
    "url": "wheretobuy-store.html",
    "address": "236 Dapin Court",
    "lat": "52.5167",
    "lng": "13.4"
}, {
    "name": "Twinte",
    "url": "wheretobuy-store.html",
    "address": "00248 Bayside Crossing",
    "lat": "41.25",
    "lng": "-8.4"
}, {
    "name": "Kwimbee",
    "url": "wheretobuy-store.html",
    "address": "0 Sunfield Trail",
    "lat": "48.63009",
    "lng": "35.41558"
}, {
    "name": "Browsebug",
    "url": "wheretobuy-store.html",
    "address": "68 Pearson Terrace",
    "lat": "46.84028",
    "lng": "29.64333"
}, {
    "name": "Tanoodle",
    "url": "wheretobuy-store.html",
    "address": "3862 Armistice Plaza",
    "lat": "9.27972",
    "lng": "126.19111"
}, {
    "name": "Eadel",
    "url": "wheretobuy-store.html",
    "address": "3636 Sunfield Hill",
    "lat": "42.45139",
    "lng": "19.89167"
}, {
    "name": "Twitterbridge",
    "url": "wheretobuy-store.html",
    "address": "62 Derek Center",
    "lat": "-8.4478",
    "lng": "123.5082"
}, {
    "name": "Edgetag",
    "url": "wheretobuy-store.html",
    "address": "34397 Arkansas Circle",
    "lat": "39.02111",
    "lng": "117.64694"
}, {
    "name": "Katz",
    "url": "wheretobuy-store.html",
    "address": "31 Homewood Crossing",
    "lat": "52.0742",
    "lng": "4.3597"
}, {
    "name": "Katz",
    "url": "wheretobuy-store.html",
    "address": "9094 Thompson Alley",
    "lat": "37.34821",
    "lng": "59.61431"
}, {
    "name": "Skimia",
    "url": "wheretobuy-store.html",
    "address": "89 Sage Trail",
    "lat": "-9.8415",
    "lng": "123.6933"
}, {
    "name": "Wikizz",
    "url": "wheretobuy-store.html",
    "address": "3692 Kinsman Point",
    "lat": "52.17643",
    "lng": "22.06819"
}, {
    "name": "Devpulse",
    "url": "wheretobuy-store.html",
    "address": "46 Bowman Parkway",
    "lat": "39.9142",
    "lng": "69.00328"
}, {
    "name": "Mymm",
    "url": "wheretobuy-store.html",
    "address": "0576 Myrtle Parkway",
    "lat": "43.95395",
    "lng": "41.1891"
}, {
    "name": "Skyba",
    "url": "wheretobuy-store.html",
    "address": "04789 Lotheville Place",
    "lat": "52.8884",
    "lng": "103.4904"
}, {
    "name": "Photospace",
    "url": "wheretobuy-store.html",
    "address": "11431 Warrior Court",
    "lat": "-17.5",
    "lng": "14.98333"
}, {
    "name": "Flashset",
    "url": "wheretobuy-store.html",
    "address": "6 Jay Hill",
    "lat": "-7.58333",
    "lng": "-78.08333"
}, {
    "name": "Myworks",
    "url": "wheretobuy-store.html",
    "address": "11 Coleman Point",
    "lat": "54.9792",
    "lng": "83.1138"
}, {
    "name": "Dynabox",
    "url": "wheretobuy-store.html",
    "address": "62 Blackbird Parkway",
    "lat": "-16.47025",
    "lng": "-71.52758"
}, {
    "name": "Quaxo",
    "url": "wheretobuy-store.html",
    "address": "2 Pepper Wood Parkway",
    "lat": "36.45",
    "lng": "136.63333"
}, {
    "name": "Oyoyo",
    "url": "wheretobuy-store.html",
    "address": "51178 Hanson Alley",
    "lat": "-17.78333",
    "lng": "-62.86667"
}, {
    "name": "Izio",
    "url": "wheretobuy-store.html",
    "address": "53640 Porter Trail",
    "lat": "52.21965",
    "lng": "21.68032"
}, {
    "name": "Voonte",
    "url": "wheretobuy-store.html",
    "address": "345 Walton Circle",
    "lat": "30.72028",
    "lng": "112.36983"
}, {
    "name": "Livetube",
    "url": "wheretobuy-store.html",
    "address": "36406 Barby Hill",
    "lat": "55.65",
    "lng": "37.61667"
}, {
    "name": "Jayo",
    "url": "wheretobuy-store.html",
    "address": "7247 Graceland Alley",
    "lat": "26.30613",
    "lng": "115.209"
}, {
    "name": "Skipfire",
    "url": "wheretobuy-store.html",
    "address": "1 Claremont Lane",
    "lat": "29.6779",
    "lng": "-90.0901"
}, {
    "name": "Plajo",
    "url": "wheretobuy-store.html",
    "address": "45166 Valley Edge Center",
    "lat": "35.17835",
    "lng": "67.68758"
}, {
    "name": "Voonte",
    "url": "wheretobuy-store.html",
    "address": "1748 Straubel Street",
    "lat": "-7.5147",
    "lng": "107.8086"
}, {
    "name": "Topicware",
    "url": "wheretobuy-store.html",
    "address": "344 Badeau Drive",
    "lat": "-7.11",
    "lng": "108.1066"
}, {
    "name": "Mita",
    "url": "wheretobuy-store.html",
    "address": "3 3rd Center",
    "lat": "38.1",
    "lng": "-8.7667"
}, {
    "name": "Jamia",
    "url": "wheretobuy-store.html",
    "address": "4 Mallory Street",
    "lat": "-3.3925",
    "lng": "-44.35861"
}, {
    "name": "Oyoyo",
    "url": "wheretobuy-store.html",
    "address": "4 Sloan Park",
    "lat": "48.43161",
    "lng": "26.26231"
}, {
    "name": "Browsezoom",
    "url": "wheretobuy-store.html",
    "address": "33 Monterey Place",
    "lat": "38.9087",
    "lng": "-77.0414"
}, {
    "name": "Fanoodle",
    "url": "wheretobuy-store.html",
    "address": "2299 Linden Point",
    "lat": "31.03608",
    "lng": "35.46544"
}, {
    "name": "Wikizz",
    "url": "wheretobuy-store.html",
    "address": "1049 Eastlawn Plaza",
    "lat": "39.24806",
    "lng": "26.27167"
}, {
    "name": "Flashdog",
    "url": "wheretobuy-store.html",
    "address": "281 Gerald Hill",
    "lat": "43.8333",
    "lng": "4.35"
}, {
    "name": "Centidel",
    "url": "wheretobuy-store.html",
    "address": "74 Mccormick Street",
    "lat": "53.71028",
    "lng": "91.6875"
}, {
    "name": "Yabox",
    "url": "wheretobuy-store.html",
    "address": "53768 Tony Terrace",
    "lat": "32.76916",
    "lng": "119.73807"
}, {
    "name": "Linkbuzz",
    "url": "wheretobuy-store.html",
    "address": "41 Shasta Alley",
    "lat": "29.385",
    "lng": "106.51944"
}, {
    "name": "Cogidoo",
    "url": "wheretobuy-store.html",
    "address": "467 Jenna Road",
    "lat": "28.61108",
    "lng": "109.12219"
}, {
    "name": "Tagcat",
    "url": "wheretobuy-store.html",
    "address": "8431 Pepper Wood Terrace",
    "lat": "29.9475",
    "lng": "-81.5264"
}, {
    "name": "Skajo",
    "url": "wheretobuy-store.html",
    "address": "178 Kim Hill",
    "lat": "43.012",
    "lng": "-85.6309"
}, {
    "name": "Dynazzy",
    "url": "wheretobuy-store.html",
    "address": "596 Dixon Circle",
    "lat": "49.8975",
    "lng": "6.18333"
}, {
    "name": "Topiclounge",
    "url": "wheretobuy-store.html",
    "address": "21 Golf View Lane",
    "lat": "34.98924",
    "lng": "107.90026"
}, {
    "name": "Roodel",
    "url": "wheretobuy-store.html",
    "address": "57 Kennedy Junction",
    "lat": "28.01228",
    "lng": "114.02735"
}, {
    "name": "Zoombox",
    "url": "wheretobuy-store.html",
    "address": "311 Anhalt Lane",
    "lat": "26.40238",
    "lng": "112.85908"
}, {
    "name": "Photobean",
    "url": "wheretobuy-store.html",
    "address": "6 Independence Crossing",
    "lat": "24.19167",
    "lng": "55.76056"
}, {
    "name": "Kimia",
    "url": "wheretobuy-store.html",
    "address": "34723 Northview Court",
    "lat": "40.33055",
    "lng": "21.79102"
}, {
    "name": "Skivee",
    "url": "wheretobuy-store.html",
    "address": "6 Comanche Junction",
    "lat": "51.84045",
    "lng": "39.94134"
}, {
    "name": "Livepath",
    "url": "wheretobuy-store.html",
    "address": "0 Summerview Way",
    "lat": "30.35691",
    "lng": "118.34123"
}, {
    "name": "Roomm",
    "url": "wheretobuy-store.html",
    "address": "8658 Lillian Trail",
    "lat": "39.3",
    "lng": "-8.6667"
}, {
    "name": "Tekfly",
    "url": "wheretobuy-store.html",
    "address": "218 Basil Road",
    "lat": "39.665",
    "lng": "21.735"
}, {
    "name": "Bubblemix",
    "url": "wheretobuy-store.html",
    "address": "54487 Warner Pass",
    "lat": "32.21667",
    "lng": "130.75"
}, {
    "name": "Gabtune",
    "url": "wheretobuy-store.html",
    "address": "05 Trailsway Terrace",
    "lat": "48.88199",
    "lng": "101.23953"
}, {
    "name": "Avamm",
    "url": "wheretobuy-store.html",
    "address": "61 4th Way",
    "lat": "45.84608",
    "lng": "62.15264"
}, {
    "name": "Viva",
    "url": "wheretobuy-store.html",
    "address": "9 Sunbrook Alley",
    "lat": "51.68333",
    "lng": "94.73333"
}, {
    "name": "Tazzy",
    "url": "wheretobuy-store.html",
    "address": "5778 Maple Parkway",
    "lat": "50.63982",
    "lng": "29.47041"
}, {
    "name": "Dynazzy",
    "url": "wheretobuy-store.html",
    "address": "2719 Westport Street",
    "lat": "24.92271",
    "lng": "102.48496"
}, {
    "name": "Bubblebox",
    "url": "wheretobuy-store.html",
    "address": "5749 Debra Place",
    "lat": "-11.91333",
    "lng": "-76.53833"
}, {
    "name": "Jabbertype",
    "url": "wheretobuy-store.html",
    "address": "4 Moland Terrace",
    "lat": "35.45",
    "lng": "135.33333"
}, {
    "name": "Browsetype",
    "url": "wheretobuy-store.html",
    "address": "9 Dorton Plaza",
    "lat": "30.9122",
    "lng": "95.19044"
}, {
    "name": "Oozz",
    "url": "wheretobuy-store.html",
    "address": "97 Elka Park",
    "lat": "54.63958",
    "lng": "100.61755"
}, {
    "name": "Youbridge",
    "url": "wheretobuy-store.html",
    "address": "4029 Pepper Wood Terrace",
    "lat": "27.65083",
    "lng": "119.7075"
}, {
    "name": "Twimbo",
    "url": "wheretobuy-store.html",
    "address": "75 Huxley Plaza",
    "lat": "49.92106",
    "lng": "19.2453"
}, {
    "name": "Ozu",
    "url": "wheretobuy-store.html",
    "address": "48936 Armistice Lane",
    "lat": "17.9292",
    "lng": "-95.6933"
}, {
    "name": "Minyx",
    "url": "wheretobuy-store.html",
    "address": "398 Monterey Court",
    "lat": "29.95175",
    "lng": "121.50606"
}, {
    "name": "Jabberstorm",
    "url": "wheretobuy-store.html",
    "address": "7 Arkansas Court",
    "lat": "-7.2793",
    "lng": "107.8079"
}, {
    "name": "Riffwire",
    "url": "wheretobuy-store.html",
    "address": "282 Sommers Junction",
    "lat": "-20.58333",
    "lng": "-63.9"
}, {
    "name": "Mymm",
    "url": "wheretobuy-store.html",
    "address": "54122 Schiller Road",
    "lat": "64.46667",
    "lng": "24.23333"
}, {
    "name": "Oyonder",
    "url": "wheretobuy-store.html",
    "address": "03153 Bunker Hill Lane",
    "lat": "10.18026",
    "lng": "-67.9377"
}, {
    "name": "Tagfeed",
    "url": "wheretobuy-store.html",
    "address": "75 Moland Junction",
    "lat": "32.53194",
    "lng": "13.0175"
}, {
    "name": "Eadel",
    "url": "wheretobuy-store.html",
    "address": "68913 Emmet Terrace",
    "lat": "40.47013",
    "lng": "50.32476"
}, {
    "name": "Eamia",
    "url": "wheretobuy-store.html",
    "address": "1 Mccormick Street",
    "lat": "33.7661",
    "lng": "-117.9738"
}, {
    "name": "Gigaclub",
    "url": "wheretobuy-store.html",
    "address": "402 Beilfuss Drive",
    "lat": "31.57096",
    "lng": "112.26634"
}, {
    "name": "Twiyo",
    "url": "wheretobuy-store.html",
    "address": "82705 Bluejay Lane",
    "lat": "27.7739",
    "lng": "116.91454"
}, {
    "name": "Tagpad",
    "url": "wheretobuy-store.html",
    "address": "75692 Moulton Center",
    "lat": "59.36",
    "lng": "18.0009"
}, {
    "name": "Riffpedia",
    "url": "wheretobuy-store.html",
    "address": "813 Lindbergh Court",
    "lat": "43.64806",
    "lng": "51.17222"
}, {
    "name": "Brainverse",
    "url": "wheretobuy-store.html",
    "address": "152 Sutherland Plaza",
    "lat": "-32.90323",
    "lng": "18.75704"
}, {
    "name": "Geba",
    "url": "wheretobuy-store.html",
    "address": "82629 Gerald Park",
    "lat": "51.85503",
    "lng": "16.49805"
}, {
    "name": "Zoomcast",
    "url": "wheretobuy-store.html",
    "address": "35 Spenser Drive",
    "lat": "48.94806",
    "lng": "14.54131"
}, {
    "name": "Realblab",
    "url": "wheretobuy-store.html",
    "address": "7 Truax Terrace",
    "lat": "40.93972",
    "lng": "46.37889"
}, {
    "name": "Skinder",
    "url": "wheretobuy-store.html",
    "address": "90997 Muir Circle",
    "lat": "26.13605",
    "lng": "118.73773"
}, {
    "name": "Linklinks",
    "url": "wheretobuy-store.html",
    "address": "3122 Namekagon Trail",
    "lat": "53.33641",
    "lng": "14.43835"
}, {
    "name": "Eimbee",
    "url": "wheretobuy-store.html",
    "address": "9572 Sachs Alley",
    "lat": "59.8732",
    "lng": "10.8107"
}]