{"objects": [
    {
        "name": "ТЦ «МЕБЕЛЬНЫЙ КОНТИНЕНТ»",
        "url": "/buy/continent/",
        "address": "г. Санкт-Петербург, ул. Варшавская, д. 3, корп. 4, этаж 2, сек. IV-202, IV-204",
        "lat": "59.881535",
        "lng": "30.310702"
    }, {
        "name": "МЦ «ГРАНД КАНЬОН»",
        "url": "/buy/canyon/",
        "address": "г. Санкт-Петербург, ул. Шостаковича, 8, корп. 1, литер А, этаж 3, секция 318",
        "lat": "60.058991",
        "lng": "30.329594"
    }, {
        "name": "МЦ «ИМПЕРИЯ»",
        "url": "/buy/empire/",
        "address": "г. Москва, Дмитровское шоссе, владение 159, этаж 1, вход 2",
        "lat": "55.905591",
        "lng": "37.539272"
    }, {
        "name": "МЦ «КРАСНЫЙ КИТ»",
        "url": "/buy/red_kit/",
        "address": "г. Мытищи, Шараповский пр-д, вл. 2, стр. 4, этаж 1",
        "lat": "55.916592",
        "lng": "37.75903"
    }, {
        "name": "СТК «ТВОЙ ДОМ»",
        "url": "/buy/your_house/",
        "address": "г. Москва, Пересечение МКАД и Каширского шоссе, 2-й этаж",
        "lat": "55.585646",
        "lng": "37.720397"
    }, {
        "name": "ТК «ТРИ КИТА» (Wellige)",
        "url": "/buy/tri_kita_well/",
        "address": "г. Москва, Можайское шоссе, 2 км от МКАД (в сторону области), 4-й этаж",
        "lat": "55.70338200373907",
        "lng": "37.355608636909054"
    }, {
        "name": "ТК «ТРИ КИТА» (Loft)",
        "url": "/buy/tri_kita_loft/",
        "address": "г. Москва, Можайское шоссе, 2 км от МКАД (в сторону области), 1-й этаж",
        "lat": "55.70218242369333",
        "lng": "37.35579102712208"
    }, {
        "name": "МЦ «ROOMER» (Loft)",
        "url": "/buy/roomer/",
        "address": "г. Москва, ул. Ленинская слобода, 26, этаж 2, секции 215-216",
        "lat": "55.709992",
        "lng": "37.654287"
    }, {
        "name": "ТЦ «ГРАНД-2»",
        "url": "/buy/grand2/",
        "address": "г. Химки, ул. Бутакова, д. 4, 1-й этаж",
        "lat": "55.886546",
        "lng": "37.436848"
    }, {
        "name": "БП «РУМЯНЦЕВО» (Wellige)",
        "url": "/buy/rumyantsevo_well/",
        "address": "г. Москва, Киевское шоссе, 0.5 км от МКАД, вход 3, 7, этаж 2, корпус А, павильон 201",
        "lat": "55.634049584311605",
        "lng": "37.443313348361634"
    }, {
        "name": "БП «РУМЯНЦЕВО» (Loft)",
        "url": "/buy/rumyantsevo_loft/",
        "address": "г. Москва, Киевское шоссе, 0.5 км от МКАД, вход 3, 7, этаж 2, корпус А, павильон 201",
        "lat": "55.633909992883524",
        "lng": "37.44227265126385"
    }]
}